{
  "places": [
    {
      "name": "Shane's",
      "imageUrl": "https://shanesmedia.azureedge.net/images/logo.png",
      "addresses": [
        {
          "address": "2240 NW 19th Street",
          "city": "Boca Raton",
          "state": "FL",
          "zipCode": "33431"
        }
      ],
      "insertDate": "2019-01-14T15:57:04.648Z"
    },
    {
      "name": "Senor Burrito",
      "imageUrl": "http://www.senorburrito.com/images/logo.png",
      "addresses": [
        {
          "address": "513 NE 20th Stree",
          "city": "Boca Raton",
          "state": "FL",
          "zipCode": "33431"
        }
      ],
      "insertDate": "2019-01-14T15:57:04.648Z"
    },
    {
      "name": "Pei Wei",
      "imageUrl": "https://www.peiwei.com/-/media/sites/main/home-page/tiger-nav-logo.png?h=93&w=363&hash=3D44D4238414104754EDD0C82446026AEA2F54B0",
      "addresses": [
        {
          "address": "1831 S. Federal Hwy. #300",
          "city": "Delray Beach",
          "state": "FL",
          "zipCode": "33483"
        }
      ],
      "insertDate": "2019-01-15T15:57:04.648Z"
    },
    {
      "name": "The Habit",
      "imageUrl": "https://www.habitburger.com/wp-content/themes/habitburger/images/logo-habit.jpg",
      "addresses": [
        {
          "address": "5560 N Military Trail",
          "city": "Boca Raton",
          "state": "FL",
          "zipCode": "33496"
        },
        {
          "address": "1831 S. Federal Hwy",
          "city": "Delray Beach",
          "state": "FL",
          "zipCode": "33483"
        }
      ],
      "insertDate": "2019-01-14T15:57:04.648Z"
    },
    {
      "name": "Chipotle",
      "imageUrl": "https://drpma142ptgxf.cloudfront.net/assets/logo.svg",
      "addresses": [
        {
          "address": "5560 N Military Trail",
          "city": "Boca Raton",
          "state": "FL",
          "zipCode": "33496"
        },
        {
          "address": "520 Linton Blvd Ste 101",
          "city": "Delray Beach",
          "state": "FL",
          "zipCode": "33444"
        }
      ],
      "insertDate": "2019-01-14T15:57:04.648Z"
    },
    {
      "name": "Santo's",
      "imageUrl": "https://www.santosbuffet.com/wp-content/uploads/2014/11/logo.png",
      "addresses": [
        {
          "address": "3400 N. Federal Hwy",
          "city": "Boca Raton",
          "state": "FL",
          "zipCode": "33431"
        }
      ],
      "insertDate": "2019-01-15T16:03:39.761Z"
    },
    {
      "name": "Whole Foods",
      "imageUrl": "https://www.newhope.com/sites/newhope360.com/files/styles/article_featured_standard/public/uploads/2014/07/whole-foods-logowhole-foods-behance-xputf7ta.jpg?itok=aKl4PyjP",
      "addresses": [
        {
          "address": "1400 Glades Rd Ste 110",
          "city": "Boca Raton",
          "state": "FL",
          "zipCode": "33431"
        }
      ],
      "insertDate": "2019-01-15T20:10:37.533Z"
    },
    {
      "name": "5 Spice",
      "imageUrl": "https://res.cloudinary.com/grubhub/image/upload/w_70,h_70,f_auto,fl_lossy,q_80,c_fit/l9wo3pywu1sylxeg338i",
      "addresses": [
        {
          "address": "1200 Yamato Rd Ste AI",
          "city": "Boca Raton",
          "state": "FL",
          "zipCode": "33431"
        }
      ],
      "insertDate": "2019-01-15T20:13:53.803Z"
    },
    {
      "name": "Caribbean Grill",
      "addresses": [
        {
          "address": "1332 Nw Boca Raton Blvd",
          "city": "Boca Raton",
          "state": "FL",
          "zipCode": "33432"
        }
      ],
      "insertDate": "2019-01-15T20:16:06.484Z"
    },
    {
      "name": "Rocksteady Jamaican Bistro",
      "addresses": [
        {
          "address": "2399 N FEDERAL HWY",
          "city": "Boca Raton",
          "state": "FL",
          "zipCode": "33431"
        }
      ],
      "insertDate": "2019-01-15T20:17:37.920Z"
    },
    {
      "name": "Punjab Indian",
      "addresses": [
        {
          "address": "1801 N FEDERAL HWY",
          "city": "Boca Raton",
          "state": "FL",
          "zipCode": "33431"
        }
      ],
      "insertDate": "2019-01-15T20:20:38.080Z"
    },
    {
      "name": "Bombay Cafe",
      "imageUrl": "http://www.bombaycafeboca.com/wp-content/uploads/2017/03/Bombay-Cafe-Logo-footer-pink.png",
      "addresses": [
        {
          "address": "1200 Yamato Road, Suite A5",
          "city": "Boca Raton",
          "state": "FL",
          "zipCode": "33431"
        }
      ],
      "insertDate": "2019-01-15T20:22:23.941Z"
    }
  ],
  "decisions": [
    {
      "time": "2019-01-18T11:50:50.928651",
      "dayOfWeek": 5,
      "attendees": [
        "John",
        "Jeff",
        "Ovidio",
        "Carlos",
        "Faisal",
        "Mike"
      ],
      "nextMeetingIn": 90,
      "weather": {
        "coord": {
          "lon": -80.09,
          "lat": 26.41
        },
        "weather": [
          {
            "id": 800,
            "main": "Clear",
            "description": "clear sky",
            "icon": "01d"
          }
        ],
        "base": "stations",
        "main": {
          "temp": 74.08,
          "pressure": 1022,
          "humidity": 58,
          "temp_min": 72.32,
          "temp_max": 75.92
        },
        "visibility": 16093,
        "wind": {
          "speed": 4.7,
          "deg": 280
        },
        "clouds": {
          "all": 1
        },
        "dt": 1547828100,
        "sys": {
          "type": 1,
          "id": 4735,
          "message": 0.0246,
          "country": "US",
          "sunrise": 1547813366,
          "sunset": 1547851963
        },
        "id": 420008718,
        "name": "Boca Raton",
        "cod": 200
      },
      "place": {
        "name": "Shane's",
        "imageUrl": "https://shanesmedia.azureedge.net/images/logo.png",
        "addresses": [
          {
            "address": "2240 NW 19th Street",
            "city": "Boca Raton",
            "state": "FL",
            "zipCode": "33431"
          }
        ]
      },
      "going": false
    },
    {
      "time": "2019-01-18T11:51:01.463031",
      "dayOfWeek": 5,
      "attendees": [
        "John",
        "Jeff",
        "Ovidio",
        "Carlos",
        "Faisal",
        "Mike"
      ],
      "nextMeetingIn": 90,
      "weather": {
        "coord": {
          "lon": -80.09,
          "lat": 26.41
        },
        "weather": [
          {
            "id": 800,
            "main": "Clear",
            "description": "clear sky",
            "icon": "01d"
          }
        ],
        "base": "stations",
        "main": {
          "temp": 74.08,
          "pressure": 1022,
          "humidity": 58,
          "temp_min": 72.32,
          "temp_max": 75.92
        },
        "visibility": 16093,
        "wind": {
          "speed": 4.7,
          "deg": 280
        },
        "clouds": {
          "all": 1
        },
        "dt": 1547828100,
        "sys": {
          "type": 1,
          "id": 4735,
          "message": 0.0246,
          "country": "US",
          "sunrise": 1547813366,
          "sunset": 1547851963
        },
        "id": 420008718,
        "name": "Boca Raton",
        "cod": 200
      },
      "place": {
        "name": "Rocksteady Jamaican Bistro",
        "imageUrl": null,
        "addresses": [
          {
            "address": "2399 N FEDERAL HWY",
            "city": "Boca Raton",
            "state": "FL",
            "zipCode": "33431"
          }
        ]
      },
      "going": false
    },
    {
      "time": "2019-01-18T11:51:07.276074",
      "dayOfWeek": 5,
      "attendees": [
        "John",
        "Jeff",
        "Ovidio",
        "Carlos",
        "Faisal",
        "Mike"
      ],
      "nextMeetingIn": 90,
      "weather": {
        "coord": {
          "lon": -80.09,
          "lat": 26.41
        },
        "weather": [
          {
            "id": 800,
            "main": "Clear",
            "description": "clear sky",
            "icon": "01d"
          }
        ],
        "base": "stations",
        "main": {
          "temp": 74.08,
          "pressure": 1022,
          "humidity": 58,
          "temp_min": 72.32,
          "temp_max": 75.92
        },
        "visibility": 16093,
        "wind": {
          "speed": 4.7,
          "deg": 280
        },
        "clouds": {
          "all": 1
        },
        "dt": 1547828100,
        "sys": {
          "type": 1,
          "id": 4735,
          "message": 0.0246,
          "country": "US",
          "sunrise": 1547813366,
          "sunset": 1547851963
        },
        "id": 420008718,
        "name": "Boca Raton",
        "cod": 200
      },
      "place": {
        "name": "Rocksteady Jamaican Bistro",
        "imageUrl": null,
        "addresses": [
          {
            "address": "2399 N FEDERAL HWY",
            "city": "Boca Raton",
            "state": "FL",
            "zipCode": "33431"
          }
        ]
      },
      "going": false
    },
    {
      "time": "2019-01-18T11:51:49.387326",
      "dayOfWeek": 5,
      "attendees": [
        "John",
        "Jeff",
        "Ovidio",
        "Carlos",
        "Faisal",
        "Mike"
      ],
      "nextMeetingIn": 90,
      "weather": {
        "coord": {
          "lon": -80.09,
          "lat": 26.41
        },
        "weather": [
          {
            "id": 800,
            "main": "Clear",
            "description": "clear sky",
            "icon": "01d"
          }
        ],
        "base": "stations",
        "main": {
          "temp": 74.08,
          "pressure": 1022,
          "humidity": 58,
          "temp_min": 72.32,
          "temp_max": 75.92
        },
        "visibility": 16093,
        "wind": {
          "speed": 4.7,
          "deg": 280
        },
        "clouds": {
          "all": 1
        },
        "dt": 1547828100,
        "sys": {
          "type": 1,
          "id": 4735,
          "message": 0.0246,
          "country": "US",
          "sunrise": 1547813366,
          "sunset": 1547851963
        },
        "id": 420008718,
        "name": "Boca Raton",
        "cod": 200
      },
      "place": {
        "name": "Punjab Indian",
        "imageUrl": null,
        "addresses": [
          {
            "address": "1801 N FEDERAL HWY",
            "city": "Boca Raton",
            "state": "FL",
            "zipCode": "33431"
          }
        ]
      },
      "going": false
    },
    {
      "time": "2019-01-18T11:51:56.779003",
      "dayOfWeek": 5,
      "attendees": [
        "John",
        "Jeff",
        "Ovidio",
        "Carlos",
        "Faisal",
        "Mike"
      ],
      "nextMeetingIn": 90,
      "weather": {
        "coord": {
          "lon": -80.09,
          "lat": 26.41
        },
        "weather": [
          {
            "id": 800,
            "main": "Clear",
            "description": "clear sky",
            "icon": "01d"
          }
        ],
        "base": "stations",
        "main": {
          "temp": 74.08,
          "pressure": 1022,
          "humidity": 58,
          "temp_min": 72.32,
          "temp_max": 75.92
        },
        "visibility": 16093,
        "wind": {
          "speed": 4.7,
          "deg": 280
        },
        "clouds": {
          "all": 1
        },
        "dt": 1547828100,
        "sys": {
          "type": 1,
          "id": 4735,
          "message": 0.0246,
          "country": "US",
          "sunrise": 1547813366,
          "sunset": 1547851963
        },
        "id": 420008718,
        "name": "Boca Raton",
        "cod": 200
      },
      "place": {
        "name": "Whole Foods",
        "imageUrl": "https://www.newhope.com/sites/newhope360.com/files/styles/article_featured_standard/public/uploads/2014/07/whole-foods-logowhole-foods-behance-xputf7ta.jpg?itok=aKl4PyjP",
        "addresses": [
          {
            "address": "1400 Glades Rd Ste 110",
            "city": "Boca Raton",
            "state": "FL",
            "zipCode": "33431"
          }
        ]
      },
      "going": true
    }
  ]
}